Time,header.seq,header.stamp.secs,header.stamp.nsecs,header.frame_id,pose.position.x,pose.position.y,pose.position.z,pose.orientation.x,pose.orientation.y,pose.orientation.z,pose.orientation.w
1659040913.3345423,34,0,0,,0.2873501689954786,0.03303078034950081,0.3846042568866152,0.9285254260161989,-0.37118705743292185,-0.006518160296159556,0.0042679292016371126
1659040913.3783987,35,0,0,,0.28706816436384863,0.03564475983801482,0.3846042568866152,0.9276775912570481,-0.37330013096125836,-0.006501609528105598,0.00436210666015369
1659040913.4262938,36,0,0,,0.2864409451549653,0.04091580508529685,0.3846042568866152,0.9270201404176053,-0.37492957304688196,-0.00642501011281496,0.004493746857383426
1659040913.4664028,37,0,0,,0.28616798169012037,0.04344016502762752,0.3846042568866152,0.9271405115506781,-0.37463716416077814,-0.00615388361824201,0.00442682614049779
1659040913.4875302,38,0,0,,0.2859392719607831,0.04585127428247396,0.3846042568866152,0.9273224576641919,-0.3741963977010952,-0.005693592529050121,0.004206954332850122
1659040913.5303266,39,0,0,,0.2857538131588026,0.04802875136671729,0.3846042568866152,0.9274776489952266,-0.37382090005132484,-0.0052302892344562755,0.003973584268264265
1659040913.5742974,40,0,0,,0.28555782069438196,0.04992437626916357,0.3846042568866152,0.9274217295055276,-0.3739644518948027,-0.00495277133884886,0.0038722627252530725
1659040913.6183226,41,0,0,,0.2853644200004159,0.05161378852372689,0.3846042568866152,0.9270097504674157,-0.37498713395066696,-0.004799909767347867,0.0038121875991793787
1659040913.6623948,42,0,0,,0.28495108985674,0.05431164992407618,0.3846042568866152,0.9264085209396649,-0.376466378771486,-0.004943934672191115,0.003984406365932
1659040913.7065523,43,0,0,,0.2847836487472988,0.05530142909250859,0.3846042568866152,0.9264600651977637,-0.3763369822123365,-0.0050603326202062916,0.004076327693461262
1659040913.7248294,44,0,0,,0.28467816350446995,0.056000421603849417,0.3846042568866152,0.9265753252802527,-0.37605025669911635,-0.005189493532482293,0.004176143632718164
1659040913.7667394,45,0,0,,0.2846503729890097,0.056395168482399664,0.3846042568866152,0.9266927258906288,-0.3757577987415029,-0.00532734429607693,0.004276431735016836
1659040913.8104098,46,0,0,,0.28466588121674496,0.05656157739620767,0.3846042568866152,0.9267537326191153,-0.37560028023458875,-0.005642982586173803,0.00448389494809908
1659040913.8543162,47,0,0,,0.2847246234762678,0.056577675362697755,0.3846042568866152,0.9267493824821444,-0.3756008661842724,-0.0060755363684868125,0.0047601729643367745
1659040913.8984244,48,0,0,,0.2848528013542846,0.056591854073197966,0.3846042568866152,0.9267211364930729,-0.37563799685478055,-0.00729513431623768,0.005550811610390461
1659040913.9424806,49,0,0,,0.28492982687487356,0.056601778750535625,0.3846042568866152,0.9266885409845277,-0.3756955749382886,-0.008045257039423688,0.006037948272371687
1659040913.9631388,50,0,0,,0.28499682482060973,0.05661686492266122,0.3846042568866152,0.9266389589655006,-0.37578973331251664,-0.008882292971745262,0.006589456433906908
1659040914.0064323,51,0,0,,0.28508506904255976,0.056636607543646446,0.3846042568866152,0.9266247383403786,-0.37579257294570295,-0.009757164020786153,0.007164786510537027
1659040914.0506878,52,0,0,,0.28514674615312496,0.05664198183723851,0.3846042568866152,0.9266017907094635,-0.37581453054280395,-0.010623797027007382,0.007726255439158261
1659040914.0943747,53,0,0,,0.2852386008156256,0.056653731773783446,0.3846042568866152,0.9265553011814905,-0.3758934791534758,-0.011450271075953637,0.008261808205874972
1659040914.1386626,54,0,0,,0.2854218675706621,0.05662562386592285,0.3846042568866152,0.9263422768234979,-0.3763559096246783,-0.01276882762302683,0.009119895876723648
1659040914.182426,55,0,0,,0.2855087452991874,0.05654233038939597,0.3846042568866152,0.9261807782953119,-0.37673819407153497,-0.013069375757841546,0.00931077123927737
1659040914.2007623,56,0,0,,0.28554612194190876,0.05635023222018894,0.3846042568866152,0.9259463868557055,-0.3773114665967062,-0.013120986972434202,0.009337319976313473
1659040914.2436247,57,0,0,,0.2855913075802524,0.05598905374071753,0.3846042568866152,0.9256142419575702,-0.3781262939792494,-0.013119805860034625,0.00930868310691743
1659040914.2866008,58,0,0,,0.2856358551011884,0.05545624504520157,0.3846042568866152,0.9252470123288448,-0.3790165853284034,-0.013287277198269913,0.009372432313654658
1659040914.3305445,59,0,0,,0.2856800553183358,0.05474120323820274,0.3846042568866152,0.9247852362353361,-0.38012894514197654,-0.013594425099061214,0.009457458040074975
1659040914.3744059,60,0,0,,0.2857052480725776,0.05270306935502945,0.3846042568866152,0.9234822509091795,-0.38323698765321934,-0.014665547794420246,0.009739879788829658
1659040914.418449,61,0,0,,0.28580053770915337,0.05165152416434035,0.3846042568866152,0.9228555600361412,-0.38473416480044415,-0.014837738712157957,0.00985288058074261
1659040914.4386725,62,0,0,,0.28591005686721505,0.050669223883365415,0.3846042568866152,0.9223684487024374,-0.38589300260528236,-0.014886952289019222,0.010070453309536438
1659040914.482306,63,0,0,,0.2860567836379378,0.04955821280244979,0.3846042568866152,0.9219964179843213,-0.3867759644684248,-0.014919097086755796,0.010216607860545703
1659040914.5266337,64,0,0,,0.28616084618194415,0.04858507813055518,0.3846042568866152,0.9216645989173662,-0.38755733945146265,-0.015057743168083776,0.010341185163801843
1659040914.570409,65,0,0,,0.28615413874335105,0.04768090501415132,0.3846042568866152,0.9213866432728629,-0.3881914030943149,-0.015496788266424012,0.010674161151421255
1659040914.6143172,66,0,0,,0.2860002183801729,0.04601454066104158,0.3846042568866152,0.9208520610024877,-0.38939511894846757,-0.01651238929087429,0.011413329309959537
1659040914.6583328,67,0,0,,0.28603329032264985,0.045353474457790116,0.3846042568866152,0.9208060447743086,-0.38949715063653917,-0.016633107053238606,0.011468971312585749
1659040914.6770065,68,0,0,,0.2861392049499625,0.04474515141328404,0.3846042568866152,0.9208153625638213,-0.3894790034480621,-0.01659540932672529,0.011391502452337733
1659040914.7183843,69,0,0,,0.2862201367690978,0.04420195294957166,0.3846042568866152,0.9208135373859085,-0.38948556466346174,-0.016576412664973495,0.011342258538635044
1659040914.7623374,70,0,0,,0.28629734912165616,0.04365519525594865,0.3846042568866152,0.9208557984281612,-0.38939150309965376,-0.016500533523781,0.01125114253516014
1659040914.8062916,71,0,0,,0.28639293905768537,0.042906409134273134,0.3846042568866152,0.9206754243169722,-0.3898203857720777,-0.01648199784747245,0.011188102700999635
1659040914.8506162,72,0,0,,0.2866672568137259,0.041055997941947364,0.3846042568866152,0.9199053678898517,-0.3916345631073854,-0.016523113311578175,0.01111169806015284
1659040914.8948243,73,0,0,,0.28682242126394686,0.03994305618776506,0.3846042568866152,0.9195013285238145,-0.39258109496773425,-0.0165700690526941,0.011082577687377528
1659040914.9160419,74,0,0,,0.28699666102682314,0.03874803266177969,0.3846042568866152,0.9194059908429283,-0.39280840023291647,-0.01654518129585807,0.010974592667034553
1659040914.958486,75,0,0,,0.2871614224062779,0.03742344661887542,0.3846042568866152,0.9194152124864182,-0.39278646139330714,-0.01660700742112528,0.010893580671554834
1659040915.0023525,76,0,0,,0.28734033857626196,0.03603800537410673,0.3846042568866152,0.9194867898919484,-0.39261882497216377,-0.01666345931178044,0.010808821185378134
1659040915.0462422,77,0,0,,0.28752813064832367,0.0345183896709565,0.3846042568866152,0.91983907676758,-0.39179341190004324,-0.01672114557574232,0.010695725001412092
1659040915.0903087,78,0,0,,0.2879087088612504,0.031179091601778192,0.3846042568866152,0.9202841753880859,-0.39074714104581865,-0.016858912013506106,0.010463526188610064
1659040915.1345546,79,0,0,,0.28810108432575027,0.029272786875245576,0.3846042568866152,0.9198863583866823,-0.39168004793246897,-0.017002271128048214,0.010332012481441456
1659040915.1539001,80,0,0,,0.2882798262052347,0.027453557642031223,0.3846042568866152,0.9193792891643257,-0.3928692032831464,-0.017054201903667052,0.010230638506435012
1659040915.1945255,81,0,0,,0.2884084835180797,0.025721459485151914,0.3846042568866152,0.9192005044574546,-0.3932804150749756,-0.01722563263335641,0.01020907950008404
1659040915.2426014,82,0,0,,0.2884608136990514,0.024047441545248804,0.3846042568866152,0.919838715697131,-0.3917613961270087,-0.017301296768407283,0.010973182750325145
1659040915.2862978,83,0,0,,0.28849703373382934,0.022445556463077793,0.3846042568866152,0.9205157412930105,-0.3901428372905851,-0.017581492223004844,0.011411734041284136
1659040915.3303711,84,0,0,,0.28845591635823553,0.019784795704780027,0.3846042568866152,0.9205332190434671,-0.39004077027923056,-0.018672295736008242,0.011753107219864275
1659040915.3746653,85,0,0,,0.28830627371037115,0.018522510758316804,0.3846042568866152,0.9200586438759363,-0.39110030316029537,-0.019617511642044852,0.012157217364616642
1659040915.3917243,86,0,0,,0.2880818300642236,0.01749683809364502,0.3846042568866152,0.9196903385135894,-0.3918940288363665,-0.02070874694431521,0.012645125812827838
1659040915.4343834,87,0,0,,0.2880432312230548,0.016714229504346288,0.3846042568866152,0.9196386815361474,-0.391992568811353,-0.02106907256651941,0.012752082189734698
1659040915.4783318,88,0,0,,0.2880921412881905,0.016158141762006917,0.3846042568866152,0.9197672869639144,-0.3916951499103304,-0.021033795154836377,0.012673864022919534
1659040915.5224762,89,0,0,,0.2881542218327788,0.015900695856683696,0.3846042568866152,0.9199540562902271,-0.3912736936771417,-0.02080078723563582,0.01252031157997712
1659040915.5663016,90,0,0,,0.2883584127784296,0.015916726562599147,0.3846042568866152,0.9201306823579073,-0.390954291669193,-0.019354399834433746,0.011818477744667029
1659040915.610422,91,0,0,,0.2884550305583859,0.01592291492664915,0.3846042568866152,0.9201625892053761,-0.39094001218529617,-0.018388800962292094,0.011338796165509984
1659040915.6301632,92,0,0,,0.28845051391759635,0.01594966178849265,0.3846042568866152,0.9202167074713741,-0.3908634458806454,-0.01753814676454285,0.010926635962334235
1659040915.6703691,93,0,0,,0.2883862372726087,0.016036941653594764,0.3846042568866152,0.9203615619911992,-0.3905694745670769,-0.016713157088727178,0.010523836075280886
1659040915.7186077,94,0,0,,0.2883976626727063,0.016181456657258293,0.3846042568866152,0.9205718504259989,-0.39013001073622605,-0.015675810692683145,0.010015582114690056
1659040915.762592,95,0,0,,0.2884320524241576,0.016376162628954093,0.3846042568866152,0.9208140743983642,-0.38961092837650135,-0.01463824327837345,0.00951245044405806
1659040915.8065982,96,0,0,,0.2886069643268222,0.01708090515621521,0.3846042568866152,0.9215123630402232,-0.388051721833395,-0.012580297150918488,0.008518337219465929
1659040915.850825,97,0,0,,0.28876632985717676,0.017644662815007556,0.3846042568866152,0.9219336024814149,-0.38708980008090205,-0.01161974398321281,0.008056105660517905
1659040915.8698642,98,0,0,,0.28892248213176286,0.018372407476980126,0.3846042568866152,0.9224254803413884,-0.3859461423862638,-0.010845791092106828,0.007692672473855382
1659040915.9103527,99,0,0,,0.2890722913940228,0.019384004023857506,0.3846042568866152,0.923095311557594,-0.38436774171025884,-0.010115812480395843,0.007359025045811198
1659040915.9543357,100,0,0,,0.2892328254537536,0.02046119080968178,0.3846042568866152,0.9238006310107459,-0.3826983540069709,-0.009286427543681482,0.006937308335978974
1659040915.9983826,101,0,0,,0.2894293455629424,0.02164917101753923,0.3846042568866152,0.9245465123789821,-0.38092877852385126,-0.008210937806404386,0.006292268131894677
1659040916.042321,102,0,0,,0.289616748487192,0.024433385595532424,0.3846042568866152,0.9261578559295167,-0.3770397974589346,-0.00668846254205883,0.005280293567510067
1659040916.08632,103,0,0,,0.2896578105757551,0.02585236079562147,0.3846042568866152,0.9267262812353236,-0.37565441645471465,-0.0062126712659829305,0.004854048038137441
1659040916.109,104,0,0,,0.28970469934653337,0.02751140390269529,0.3846042568866152,0.9272145899926545,-0.3744623622803581,-0.0056288017495767255,0.004399992168356358
1659040916.150419,105,0,0,,0.28971784733471784,0.029058830470748434,0.3846042568866152,0.9276165390833842,-0.3734760109303844,-0.005182705186550136,0.00404539803758285
1659040916.1950507,106,0,0,,0.28969115920352584,0.030641940382047962,0.3846042568866152,0.9279549274578973,-0.37264077085134645,-0.004906389482942185,0.0037994538226547667
1659040916.2385235,107,0,0,,0.28962601289298995,0.03220708370585208,0.3846042568866152,0.9282127077902762,-0.3720014204205061,-0.004727502436386711,0.0037098551670505216
1659040916.2824216,108,0,0,,0.28946391495156865,0.03581582464897443,0.3846042568866152,0.9283003553897403,-0.37178934435739946,-0.004318851347623197,0.0035328646974286766
1659040916.3264065,109,0,0,,0.289394238870442,0.03793388171733185,0.3846042568866152,0.928582367030855,-0.371088304010794,-0.003924082087930828,0.00358606234175697
1659040916.3467467,110,0,0,,0.2893117403179255,0.040236398123157636,0.3846042568866152,0.9288999825369063,-0.37029563798337134,-0.003539655764014968,0.00366521066185421
1659040916.3907394,111,0,0,,0.28924304767698195,0.04262785273529318,0.3846042568866152,0.9286940922794555,-0.3708150361913559,-0.0031595960474925075,0.0036754391391137634
1659040916.4344926,112,0,0,,0.2891456843391379,0.04520205991755132,0.3846042568866152,0.9283021321609535,-0.37179909410392276,-0.0027611910382277795,0.0036001214187356832
1659040916.4785464,113,0,0,,0.28903729448530713,0.04799139357491984,0.3846042568866152,0.9282103134434616,-0.3720319294364455,-0.002398923630649367,0.0034788878391714432
1659040916.5224814,114,0,0,,0.2886602959027874,0.0538310141674491,0.3846042568866152,0.9289361262690397,-0.3702177441448486,-0.002168741339444239,0.0034339189079140783
1659040916.5664365,115,0,0,,0.28849274419880233,0.05682322793417485,0.3846042568866152,0.9288078076073335,-0.37054130536868396,-0.001993355675727048,0.0033502345703409933
1659040916.5847597,116,0,0,,0.28834260860959104,0.05982905218440104,0.3846042568866152,0.9283615292965032,-0.37165936468211014,-0.0018148267026205285,0.003300601543622539
1659040916.6263397,117,0,0,,0.2880779630787492,0.06289382499883024,0.3846042568866152,0.9282128802027179,-0.37202892605086835,-0.001929122245951613,0.003406712801188855
1659040916.6704738,118,0,0,,0.28777650729797855,0.06583885853742856,0.3846042568866152,0.928131051361845,-0.3722299402741671,-0.0021543300797832515,0.0036030437247170136
1659040916.714311,119,0,0,,0.2874421511501989,0.06878507357600301,0.3846042568866152,0.9283284928900967,-0.37173524574698064,-0.0022618269841111647,0.003741723922932464
1659040916.7583117,120,0,0,,0.28687593704261183,0.07415817527380245,0.3846042568866152,0.9286949630937336,-0.3708191718040855,-0.0021715403799913795,0.0037538991226001993
1659040916.8024957,121,0,0,,0.28657420946056955,0.07653941582619071,0.3846042568866152,0.9284363842598348,-0.3714665638730117,-0.00211632197873351,0.003740786370523446
1659040916.8228517,122,0,0,,0.2862561267625006,0.07874642838109475,0.3846042568866152,0.9280319658286874,-0.37247515637038675,-0.0021343921753722503,0.0037911291177189234
1659040916.8665216,123,0,0,,0.28595072385844666,0.0807699494176624,0.3846042568866152,0.9278061500933596,-0.3730364610766518,-0.0021622160568293583,0.0038563429065540445
1659040916.9103553,124,0,0,,0.2856402919300678,0.0827396224453922,0.3846042568866152,0.9280247646651539,-0.37249244957432676,-0.002129102282578459,0.003857214450321443
1659040916.9545348,125,0,0,,0.28540583421782184,0.0845018281617642,0.3846042568866152,0.928528967715957,-0.37123473542357943,-0.002045778582541951,0.0038134123393435415
1659040917.0008318,126,0,0,,0.28511133335841365,0.08746075516720961,0.3846042568866152,0.9286470440663445,-0.37094061977397097,-0.0019178956649241355,0.00374777548226357
1659040917.0426257,127,0,0,,0.285065135170585,0.08875167801083075,0.3846042568866152,0.928070759895254,-0.37238072744326495,-0.0018486907902232987,0.003720322848238779
1659040917.0610259,128,0,0,,0.2850701145441915,0.0901037162189802,0.3846042568866152,0.9278988002016623,-0.37281059354318763,-0.0017083924047771664,0.0036275779714821216
1659040917.1030762,129,0,0,,0.28516090879936595,0.09141604955973515,0.3846042568866152,0.9281030759404835,-0.37230322234354424,-0.0015821969593998234,0.0035337967421708773
1659040917.1463509,130,0,0,,0.2853743815539822,0.09267637670833666,0.3846042568866152,0.928380220174273,-0.37161257018421406,-0.0014957376665791216,0.0034680307825326337
1659040917.1902838,131,0,0,,0.28574469626108606,0.09391216886870421,0.3846042568866152,0.9286726807632032,-0.37088232274812977,-0.0013760149854835906,0.0033854480348438102
1659040917.2344239,132,0,0,,0.28675435354697953,0.09616717676434028,0.3846042568866152,0.9287036519972457,-0.37080685196046714,-0.0011838502589596412,0.003225492409243649
1659040917.278397,133,0,0,,0.2873236770458697,0.09722767607348329,0.3846042568866152,0.9286970821163752,-0.37082193574334255,-0.0013070720398815777,0.003333647136490874
1659040917.2989898,134,0,0,,0.28798729902017495,0.09829813236127967,0.3846042568866152,0.9287731405363276,-0.3706306516106009,-0.0013690902656095056,0.0033910318285703804
1659040917.3423872,135,0,0,,0.2887926507289369,0.09928272232585751,0.3846042568866152,0.9287407347007983,-0.3707124682332209,-0.0013086370211918236,0.0033468005509063414
1659040917.386556,136,0,0,,0.2897018634256976,0.10009609532573127,0.3846042568866152,0.9284420392916563,-0.371458566350622,-0.001424701387424136,0.0034472287649020997
1659040917.4303417,137,0,0,,0.2905759174959528,0.10076152319003781,0.3846042568866152,0.9282173650443519,-0.3720126810557902,-0.0019573718991433846,0.0039060284620253327
1659040917.4743347,138,0,0,,0.29195706947934286,0.10187802101510862,0.3846042568866152,0.9283247463630718,-0.3716994630608134,-0.0042424135549747255,0.0058886650275203935
1659040917.5183377,139,0,0,,0.2925696084384545,0.10243719616996504,0.3846042568866152,0.9284774458628393,-0.3712874763251952,-0.005340456181973792,0.00683534760042222
1659040917.5368013,140,0,0,,0.2931666020173974,0.10288374062811745,0.3846042568866152,0.9285090879044221,-0.37116808005331603,-0.006551670337266166,0.007887055524394485
1659040917.5783012,141,0,0,,0.29368811733996847,0.10316844322620512,0.3846042568866152,0.9283353700973618,-0.37154801227435413,-0.007979675334146884,0.009046545370200788
1659040917.6263812,142,0,0,,0.2940243454439545,0.10336595509698784,0.3846042568866152,0.9277883144670488,-0.37284484900756026,-0.010152138496094873,0.00961749402322464
1659040917.670399,143,0,0,,0.2942713824598677,0.10349276242324458,0.3846042568866152,0.9274922620116738,-0.3735080606188414,-0.011863874508047236,0.010444187062351147
1659040917.7146838,144,0,0,,0.29467132809798524,0.10327330113260261,0.3846042568866152,0.9268296656803052,-0.375068188884349,-0.013283494928619436,0.011583318388529332
1659040917.7584143,145,0,0,,0.29482039843003394,0.10283518443597171,0.3846042568866152,0.9263198823630028,-0.3763231510705154,-0.013375126540681034,0.011552813409966516
1659040917.774907,146,0,0,,0.29501090493040205,0.10209794968903278,0.3846042568866152,0.9257932297096516,-0.37762370999974754,-0.013374745977221507,0.011328973451563557
1659040917.8186908,147,0,0,,0.2952082203387553,0.10102885238324764,0.3846042568866152,0.9251494887415563,-0.37919104945588483,-0.013616780809027281,0.01127629258753834
1659040917.8623517,148,0,0,,0.2953958604693114,0.09976878295249994,0.3846042568866152,0.924392268078964,-0.38100366087531506,-0.014232872990661581,0.011513923811216797
1659040917.906493,149,0,0,,0.2956906580414236,0.09844062074028441,0.3846042568866152,0.9236015151267265,-0.38290104221565796,-0.014648095778579015,0.011509405534146089
1659040917.9504292,150,0,0,,0.2964069393935508,0.09562024252397809,0.3846042568866152,0.9223869243409241,-0.38579615430633507,-0.01515133487837433,0.01158128570842676
1659040917.9944527,151,0,0,,0.29678010989719406,0.09444910292605066,0.3846042568866152,0.9220717845056493,-0.386549764619262,-0.015126234727157824,0.011580186280342509
1659040918.0130258,152,0,0,,0.2971178271145251,0.09338933616920186,0.3846042568866152,0.9218461446589227,-0.38708815507062455,-0.015138195706033409,0.011544730928363554
1659040918.054302,153,0,0,,0.2974010345995136,0.09246154198523203,0.3846042568866152,0.9216346226109852,-0.38759082752610663,-0.015169375547130791,0.011526615628760662
1659040918.098528,154,0,0,,0.29765592306101407,0.09163305130847388,0.3846042568866152,0.9214769559093714,-0.3879649553458578,-0.015198942481973341,0.011506750157051146
1659040918.1424742,155,0,0,,0.2978473016730906,0.09093481689575517,0.3846042568866152,0.921500980786617,-0.3879046880808908,-0.015275321798661066,0.011513466811233013
1659040918.1863523,156,0,0,,0.2980575625681892,0.0896348016920972,0.3846042568866152,0.9217388156629824,-0.3873103263866139,-0.01577521944419766,0.011807168403731081
1659040918.2304611,157,0,0,,0.29817322748586483,0.08891809978171132,0.3846042568866152,0.9215540996407996,-0.3877334531932519,-0.01604192398270962,0.011977787134830968
1659040918.250812,158,0,0,,0.29837300161199,0.08803451259031933,0.3846042568866152,0.9210841419195065,-0.38883901802548476,-0.016215531947005295,0.012053136043733299
1659040918.2943177,159,0,0,,0.29848470844899594,0.08698828761113507,0.3846042568866152,0.9205575094985183,-0.390050246499425,-0.0167459015903021,0.012419810453486169
1659040918.3386328,160,0,0,,0.2985607683260359,0.08588107508699283,0.3846042568866152,0.9202727521797957,-0.39067393878663703,-0.01738318634320645,0.013029197264185124
1659040918.3824873,161,0,0,,0.2986926082132786,0.08465551439259197,0.3846042568866152,0.9202375668857544,-0.39070624821185496,-0.01796449850943903,0.013737717930287831
1659040918.4264646,162,0,0,,0.2991748477347452,0.08204850347189903,0.3846042568866152,0.9207550088609047,-0.3894252153455467,-0.018837172806455683,0.014261003866425257
1659040918.470422,163,0,0,,0.2995124496372158,0.08064326906197693,0.3846042568866152,0.9207749249798677,-0.38937102404741397,-0.018999705383319285,0.014239183815592076
1659040918.4891574,164,0,0,,0.2998663190291051,0.07922801173508914,0.3846042568866152,0.9204472571278256,-0.39013871986372545,-0.019135630855850162,0.014228623993927008
1659040918.5303862,165,0,0,,0.3001887084723499,0.07795383476507606,0.3846042568866152,0.9201510345598893,-0.39083455029450714,-0.019211235045284124,0.014190008559934091
1659040918.5744855,166,0,0,,0.30046895800549156,0.0767955214122309,0.3846042568866152,0.9201495135781838,-0.39083483920611484,-0.01930199620481606,0.014157473897544931
1659040918.6182437,167,0,0,,0.30073009997193556,0.07565573815683792,0.3846042568866152,0.920429405676644,-0.3901708487736783,-0.019423807511916986,0.014111471737381696
1659040918.6623626,168,0,0,,0.30119862152764354,0.0734002778930699,0.3846042568866152,0.9207810816484878,-0.38931882064957135,-0.019815217541768102,0.014156719959399811
1659040918.7068872,169,0,0,,0.30142960469576896,0.0723315857564307,0.3846042568866152,0.9206342190953273,-0.38966612566957326,-0.019857841363391412,0.01409295117408272
1659040918.7263565,170,0,0,,0.3016307738467122,0.0714776967373151,0.3846042568866152,0.9205424977131843,-0.3899070777526398,-0.01957534575031232,0.013812547231534975
1659040918.7703533,171,0,0,,0.3017331390866037,0.07092528546675371,0.3846042568866152,0.9207108875430824,-0.38955155379602446,-0.019044264808158354,0.013355316273900665
1659040918.8143294,172,0,0,,0.3018043061720611,0.07069306411184605,0.3846042568866152,0.9211742838223427,-0.3885221821220076,-0.018129747514940602,0.012639821141339696
1659040918.858291,173,0,0,,0.30180390831469284,0.07068678654316914,0.3846042568866152,0.9214655743079483,-0.38791021748290433,-0.016970661116723643,0.011783683595323427
1659040918.9023836,174,0,0,,0.3016554709859116,0.0707881841558726,0.3846042568866152,0.9216816161322987,-0.3875612966849658,-0.014243327346047035,0.009816690948870093
1659040918.9463487,175,0,0,,0.3014997565333003,0.07091118313968352,0.3846042568866152,0.9218557082878295,-0.38721034247340247,-0.013043562652515439,0.008948142323267818
1659040918.964357,176,0,0,,0.30135692102374306,0.07117021928588907,0.3846042568866152,0.9221052424320175,-0.38666792950906864,-0.01195919627021787,0.00817384813292321
1659040919.0063207,177,0,0,,0.30123904702992543,0.07162813153330724,0.3846042568866152,0.9224465997613326,-0.3858980133798257,-0.01093793289949074,0.007440126414713358
1659040919.0503795,178,0,0,,0.3011870226521689,0.07225335692516041,0.3846042568866152,0.9228482653612012,-0.38497712817709323,-0.009922350568816147,0.006725835262262613
1659040919.0943568,179,0,0,,0.3011754400803829,0.07313711358093253,0.3846042568866152,0.9233939057988795,-0.38369751212355624,-0.009070705042606264,0.006134837813042714
1659040919.138349,180,0,0,,0.3012639848044455,0.0756859768237989,0.3846042568866152,0.9249097503644137,-0.38008600000151105,-0.007245280135836691,0.004908380460087773
1659040919.182473,181,0,0,,0.30129482954856573,0.07737557657137943,0.3846042568866152,0.9258418767507418,-0.37783931111733077,-0.006075236668402862,0.004167221417472929
1659040919.2029014,182,0,0,,0.30125043490272063,0.07912649166508487,0.3846042568866152,0.926644718397126,-0.3758862646552729,-0.00512660554080932,0.003577683535922552
1659040919.2463155,183,0,0,,0.3011437884834036,0.08099679403418289,0.3846042568866152,0.9274100766305853,-0.3740055999470776,-0.004506458372743002,0.003170616406946168
1659040919.2904103,184,0,0,,0.3009610647769233,0.08294519520113879,0.3846042568866152,0.9277543690750395,-0.3731540231010443,-0.00469786001607258,0.00241574236152985
1659040919.334433,185,0,0,,0.3007145623182698,0.08497884278638893,0.3846042568866152,0.9279462519861958,-0.37267459069976255,-0.004946271817722432,0.0022219982466015354
1659040919.3784935,186,0,0,,0.30026320467917517,0.08954361789047384,0.3846042568866152,0.9284246123792242,-0.37148336418377986,-0.004694770397930227,0.002410061267363442
1659040919.4226298,187,0,0,,0.29999757426474527,0.09199189503991653,0.3846042568866152,0.928566114792178,-0.37113048141497856,-0.004549064193821564,0.0025381557270382034
1659040919.4407723,188,0,0,,0.29962837707047163,0.0945790558236372,0.3846042568866152,0.9283675673536007,-0.37162498753131495,-0.004574850431625152,0.0027566769330398914
1659040919.4823554,189,0,0,,0.299104996163852,0.09735295121162983,0.3846042568866152,0.9283600616628911,-0.37163929203943,-0.004629518660921238,0.003224914745744881
1659040919.5265136,190,0,0,,0.2984895819639876,0.10025181714135362,0.3846042568866152,0.9285620821298651,-0.3711289736786247,-0.004721591950542597,0.0036675735206255
1659040919.5703843,191,0,0,,0.29788334474244244,0.10305746103920063,0.3846042568866152,0.9287638583780905,-0.37061787150880915,-0.004974784816617616,0.00391665748408248
1659040919.6146398,192,0,0,,0.2965756868484088,0.10858802493772428,0.3846042568866152,0.9285664178267514,-0.37110837275624814,-0.005215113519562046,0.003973153130632762
1659040919.6584642,193,0,0,,0.29592935355550587,0.11120185326330909,0.3846042568866152,0.9282873272009733,-0.3718065005185247,-0.0051673333771928035,0.003982837543859685
1659040919.6783473,194,0,0,,0.29518977826952586,0.11383610405218667,0.3846042568866152,0.9284098919772483,-0.3714988204010252,-0.00519964072949101,0.004081991390978964
1659040919.718834,195,0,0,,0.2944374080697444,0.11638005032286536,0.3846042568866152,0.9288520796140759,-0.3703888147440621,-0.005323397648374886,0.004195419951870667
1659040919.762278,196,0,0,,0.2937701818159765,0.11868871603491968,0.3846042568866152,0.9288420392862982,-0.37041384059389154,-0.005306470146042175,0.0042301445614755075
1659040919.8064203,197,0,0,,0.2931680558375027,0.1209293002956821,0.3846042568866152,0.9285434499807323,-0.37116596459751383,-0.005100844489793606,0.004107262707701593
1659040919.8503115,198,0,0,,0.2920049120995343,0.1251988876939394,0.3846042568866152,0.928446463069912,-0.37141329463966083,-0.004849057235884042,0.003976986574292205
1659040919.894415,199,0,0,,0.29143012002997615,0.1271987895190856,0.3846042568866152,0.9287996981392008,-0.3705288371688916,-0.0048368617884319435,0.004013269172131945
1659040919.9167488,200,0,0,,0.29094635530582735,0.12908188166958298,0.3846042568866152,0.9290449749737816,-0.36991444792911726,-0.004789442950482137,0.003974535512498668
1659040919.9586837,201,0,0,,0.2905320262346751,0.13088148687123244,0.3846042568866152,0.928693015502961,-0.37079849365583756,-0.0048492647695546134,0.003774213574553813
1659040920.0025065,202,0,0,,0.29019180343111545,0.13257356838655718,0.3846042568866152,0.9281899946511482,-0.37205966996756484,-0.004737236420250957,0.0035347417226280005
1659040920.0462503,203,0,0,,0.2899127631676728,0.13423134914711482,0.3846042568866152,0.9279699585930921,-0.3726116528270756,-0.004562880846905302,0.003390022388573725
1659040920.094419,204,0,0,,0.28943744426630635,0.13750796276152358,0.3846042568866152,0.9283295096967561,-0.3717190255829873,-0.004348324802610876,0.0032217257479408416
1659040920.1385937,205,0,0,,0.2893055874002096,0.13897545782985404,0.3846042568866152,0.9286303978139075,-0.37096494794352225,-0.004431490898060924,0.003309614104594453
1659040920.154604,206,0,0,,0.2891504389415436,0.14026139671507515,0.3846042568866152,0.9287461917179959,-0.37066981859044257,-0.004663134643404326,0.0035569835314232657
1659040920.1985621,207,0,0,,0.2890527167422816,0.14133690101786145,0.3846042568866152,0.9284864509056626,-0.3713139030893807,-0.004926766201714409,0.0038239808709706405
1659040920.2424536,208,0,0,,0.2889852546294712,0.142316657642943,0.3846042568866152,0.9279621284539153,-0.37261779031636255,-0.005090653658208299,0.004044223155976502
1659040920.2904205,209,0,0,,0.28894793439653854,0.14330583897162863,0.3846042568866152,0.9275520992023468,-0.3736365634727781,-0.0051108596949077075,0.004086663106814968
1659040920.3342867,210,0,0,,0.288911702664286,0.14510667146168654,0.3846042568866152,0.9278767829471428,-0.3728288114636794,-0.005119903476549704,0.004139999894916871
1659040920.3783455,211,0,0,,0.28902128405149674,0.14580587444018442,0.3846042568866152,0.9281309319480083,-0.3721985521255645,-0.005008621965948026,0.004015552779728787
1659040920.392763,212,0,0,,0.2891381292488767,0.14632496001040357,0.3846042568866152,0.9282372990641432,-0.37193226407326413,-0.005042789429182283,0.004059290694977057
1659040920.4343445,213,0,0,,0.28920956237853923,0.14666397177861695,0.3846042568866152,0.9281936512042764,-0.372034396607386,-0.005301005182524441,0.004341998275862438
1659040920.4786565,214,0,0,,0.28928742110676536,0.14683565832518083,0.3846042568866152,0.9280484787739606,-0.37238388006301354,-0.0057342318350370285,0.0048358555604916245
1659040920.5223448,215,0,0,,0.2893987294748561,0.14688599731098848,0.3846042568866152,0.9278307847989116,-0.37291084696704274,-0.006219588694525466,0.005371378811064839
1659040920.5664694,216,0,0,,0.2895542035199523,0.14695516222644517,0.3846042568866152,0.9274138123650861,-0.3738929753486857,-0.007655974753754649,0.007003547011046222
1659040920.6104648,217,0,0,,0.2896215249196623,0.14695894069742063,0.3846042568866152,0.9272261817840988,-0.3743236329225587,-0.00845187309824422,0.007873467551362574
1659040920.6309083,218,0,0,,0.2896104797808972,0.14696661543374567,0.3846042568866152,0.9270800715749046,-0.3746411270335583,-0.009349723402766496,0.008896600293342789
1659040920.6743858,219,0,0,,0.2895671711786647,0.14692055144012717,0.3846042568866152,0.9269851491140068,-0.37482977631059217,-0.010203940325217122,0.009851482846327753
1659040920.7184417,220,0,0,,0.2895570741019303,0.1468113659895506,0.3846042568866152,0.9267702620144522,-0.37532226601859503,-0.010874586415168405,0.010574566026932018
1659040920.7623346,221,0,0,,0.28956107390915664,0.14662872308558866,0.3846042568866152,0.9264344073628861,-0.37611679783358387,-0.011425987085002108,0.011175422173788849
1659040920.8064282,222,0,0,,0.289676150723872,0.14581447088421085,0.3846042568866152,0.9254717766782404,-0.3784392314614556,-0.012182409645941784,0.011718684149054286
1659040920.8504846,223,0,0,,0.28967849276301694,0.14515822503467452,0.3846042568866152,0.9251189582460911,-0.37925742320863487,-0.012930165093265621,0.012309787405392047
1659040920.8686423,224,0,0,,0.28974473069444284,0.14429984262478185,0.3846042568866152,0.9246436621407106,-0.3803653054465833,-0.013758319041742397,0.012924439366616991
1659040920.910354,225,0,0,,0.28993977807132115,0.14334749473283084,0.3846042568866152,0.9240900793730712,-0.38166903566698274,-0.014436884396783891,0.013335995881545394
1659040920.9543066,226,0,0,,0.29024604038289714,0.1422935034968156,0.3846042568866152,0.923459976744267,-0.3831702435053659,-0.014884116892920395,0.013442429377964846
1659040920.9984653,227,0,0,,0.2906045823348553,0.14120670580380257,0.3846042568866152,0.9228222049062154,-0.3846861538903594,-0.015299219189926147,0.013478687962946025
1659040921.0423248,228,0,0,,0.29135345385369427,0.13921622193117342,0.3846042568866152,0.9219330793419029,-0.386794946438958,-0.015865742489035963,0.013317088261264712
1659040921.0862894,229,0,0,,0.29165736369184947,0.13833671608296966,0.3846042568866152,0.9215623030010577,-0.3876653615521633,-0.016129503508178367,0.013353960329030612
1659040921.1085563,230,0,0,,0.2919570967049069,0.1375292708762223,0.3846042568866152,0.9214530033722524,-0.3879233500058544,-0.01612843145132617,0.013405625512952702
1659040921.150431,231,0,0,,0.2922070878588907,0.13684691045340086,0.3846042568866152,0.9212814699684009,-0.3883311813939112,-0.016196563470583014,0.013304810478314583
1659040921.1944885,232,0,0,,0.29241849915294604,0.13618365244012526,0.3846042568866152,0.9210420582794415,-0.38889747937054636,-0.01630162541039861,0.013211147883472765
1659040921.238519,233,0,0,,0.29264765718439356,0.1354453306506973,0.3846042568866152,0.9207300132709046,-0.38963591247788304,-0.016380985229874367,0.013105788520886777
1659040921.2825997,234,0,0,,0.2932685651029382,0.13337012295004602,0.3846042568866152,0.9201771079206705,-0.3909237116598796,-0.016544182109883638,0.013380275008391063
1659040921.3264754,235,0,0,,0.2935792690925442,0.13215380611052757,0.3846042568866152,0.920254258103136,-0.3907269398732528,-0.016748020326551632,0.013566971496892104
1659040921.3468204,236,0,0,,0.2938725581917663,0.13077849592751445,0.3846042568866152,0.9200803441674807,-0.3911102788211856,-0.017246715080299603,0.013691635987409884
1659040921.3904335,237,0,0,,0.2941524154803084,0.12935899547528987,0.3846042568866152,0.9199237847840305,-0.391454653440638,-0.017726276548241382,0.013757311080077467
1659040921.4344587,238,0,0,,0.29436402835621756,0.12800201819271156,0.3846042568866152,0.9198888249021785,-0.3915175508164939,-0.018140087585218883,0.01376569811947127
1659040921.4783647,239,0,0,,0.29447725783522016,0.12676019715702466,0.3846042568866152,0.9200793005238156,-0.3910558823993096,-0.01849702372866571,0.013683482812615423
1659040921.5225508,240,0,0,,0.2946413791366066,0.12389716933183452,0.3846042568866152,0.9201216818377045,-0.3909117558285572,-0.019486885426686137,0.01357759417667447
1659040921.5664935,241,0,0,,0.29465702086172346,0.1223712530694563,0.3846042568866152,0.9201865870868002,-0.3907362680095943,-0.019916478812189713,0.013606898225053659
1659040921.5847151,242,0,0,,0.29458694490551657,0.12082996976511985,0.3846042568866152,0.9202299891211047,-0.39060263159145525,-0.020442355972778933,0.013728124360190583
1659040921.6266108,243,0,0,,0.2945111281269738,0.11923350206314207,0.3846042568866152,0.9202319105441079,-0.39058802749595234,-0.020707198364986273,0.013617471466551807
1659040921.6704884,244,0,0,,0.2945234293245572,0.11749774189424396,0.3846042568866152,0.9200806526592716,-0.39096300137738565,-0.02064788755774003,0.013160125221168677
1659040921.7144306,245,0,0,,0.2945178504814067,0.11583344146245364,0.3846042568866152,0.9198885787457602,-0.39143616323555186,-0.02048485018390172,0.012771206578519474
1659040921.758393,246,0,0,,0.2942879752846745,0.11296459405638443,0.3846042568866152,0.9202321490547327,-0.3906884848443078,-0.01974390143861012,0.01206142663332528
1659040921.8024335,247,0,0,,0.294129432283302,0.11171096912757866,0.3846042568866152,0.920437204559849,-0.3902273922113547,-0.019503533208543377,0.01172804426661418
1659040921.8223598,248,0,0,,0.2938467251993073,0.11050278326293488,0.3846042568866152,0.9205393041201257,-0.38997726473111605,-0.019674563655593662,0.011748791767247972
1659040921.8624234,249,0,0,,0.29354549297427945,0.10926583948775367,0.3846042568866152,0.9202669239585517,-0.3906097964045548,-0.01983942998923371,0.011797145331722192
1659040921.9066696,250,0,0,,0.29324593211920724,0.1080938667537149,0.3846042568866152,0.9199781945232576,-0.3912770067008481,-0.02002904474536284,0.011885411033847694
1659040921.9503167,251,0,0,,0.2930171868434872,0.10717959582996958,0.3846042568866152,0.9199935142903979,-0.3912562955062674,-0.019867849046511614,0.011649612211607352
1659040921.9944224,252,0,0,,0.2925943599542624,0.1061813182958607,0.3846042568866152,0.9206064988447505,-0.3898701732253533,-0.019164798654062957,0.010845865913445956
1659040922.0390735,253,0,0,,0.2924276066119458,0.1060121422928559,0.3846042568866152,0.9207462388081529,-0.389568361739148,-0.018798688972691678,0.010462530543334007
1659040922.0603883,254,0,0,,0.29231178089055787,0.10600307852987474,0.3846042568866152,0.9208128028552589,-0.3894370077317962,-0.018436144277803712,0.010134480293250085
1659040922.102358,255,0,0,,0.2922806834805477,0.10600212753308672,0.3846042568866152,0.9208396694023095,-0.3894050492900627,-0.01799171914344593,0.009711276161638907
1659040922.1464484,256,0,0,,0.2922741640505231,0.10600720885753696,0.3846042568866152,0.9208625765596025,-0.3893780626619709,-0.01759658413082558,0.009338074565042672
1659040922.190425,257,0,0,,0.2923169811588715,0.10610676254860703,0.3846042568866152,0.9209524870137261,-0.3891989159600966,-0.017086266247191013,0.008875808946875214
1659040922.2344592,258,0,0,,0.29273059774708177,0.10670503384358654,0.3846042568866152,0.9213735788511552,-0.38831690941450236,-0.015173198509099392,0.007104935227156165
1659040922.2783856,259,0,0,,0.2929307407603644,0.107355593457648,0.3846042568866152,0.921804590269276,-0.3873542808057736,-0.014012734539921563,0.006049939957965492
1659040922.2984984,260,0,0,,0.292983280853522,0.10812010744280902,0.3846042568866152,0.9222580022345298,-0.38631085557282024,-0.013244277605922922,0.005356238444550977
1659040922.342366,261,0,0,,0.2929164712353233,0.10905806293239134,0.3846042568866152,0.922822601830486,-0.38498306573102303,-0.012726788348691613,0.004951111919975439
1659040922.386446,262,0,0,,0.2928046107408875,0.11016624704037405,0.3846042568866152,0.9234880696990874,-0.3834079686611651,-0.01215532644139719,0.004512508207255697
1659040922.4304917,263,0,0,,0.2927605790077433,0.11140355472810848,0.3846042568866152,0.9242049735449788,-0.3817144666837885,-0.011211560632406,0.003678819169805169
1659040922.4744449,264,0,0,,0.292721267362553,0.11401543363654018,0.3846042568866152,0.9254045263425404,-0.37886783859563977,-0.009080447112707791,0.001780164134323299
1659040922.5183759,265,0,0,,0.29265820429617295,0.11522157957743831,0.3846042568866152,0.9258083699917523,-0.37789776331539005,-0.00841652623392611,0.001142209876562486
1659040922.5366786,266,0,0,,0.29253925511823786,0.11643360896358405,0.3846042568866152,0.9261858177985378,-0.3769778134588177,-0.008169358321661678,0.0009058717970570819
1659040922.582379,267,0,0,,0.29239452607547745,0.11775311020381395,0.3846042568866152,0.9266664769033316,-0.3757969137708506,-0.00807478630472706,0.0008474119518935939
1659040922.6271253,268,0,0,,0.292355863184796,0.11913749540598448,0.3846042568866152,0.9271222302332034,-0.37467782992356996,-0.007781674152167991,0.0005828217467243681
1659040922.6703904,269,0,0,,0.29244081889202655,0.12064482374690452,0.3846042568866152,-0.9273584754091386,0.37410349998773623,0.00726698205827026,5.471553095378361e-05
1659040922.7144635,270,0,0,,0.2926211338290372,0.12399094583813496,0.3846042568866152,-0.9276247261500123,0.37345825886207545,0.006371464393092025,0.0008371083964806003
1659040922.7584167,271,0,0,,0.2926155467616942,0.12581616589655154,0.3846042568866152,-0.9278933123849216,0.3727923811967645,0.006264206817665703,0.0007752656458747297
1659040922.7747927,272,0,0,,0.292583822355573,0.12776080965573655,0.3846042568866152,-0.9278394635662153,0.3729258360140202,0.006323118632177676,0.0005184966273956138
1659040922.8183255,273,0,0,,0.29252889094885903,0.12983181388889303,0.3846042568866152,-0.927493720097958,0.3737826144061501,0.006476179145245226,0.00011845526304237651
1659040922.862379,274,0,0,,0.29242575290266765,0.13216915653621375,0.3846042568866152,0.9273362337840851,-0.3741716068680739,-0.006556187588934023,0.00036635500283367303
1659040922.906366,275,0,0,,0.29225921348916234,0.1346907512966467,0.3846042568866152,0.9273784250494718,-0.37406718848734455,-0.006500235643041018,0.0008614724487383406
1659040922.9503005,276,0,0,,0.29188421863080416,0.1399028909825674,0.3846042568866152,0.9279733916452305,-0.3725862236403922,-0.00651779134727114,0.001552016504717293
1659040922.9945233,277,0,0,,0.2917317712501114,0.14255141817243375,0.3846042568866152,0.9278503423418408,-0.37288970992814746,-0.0067237439745366605,0.0013407916517881628
1659040923.012249,278,0,0,,0.2916299106745751,0.14524185579741325,0.3846042568866152,0.9275350063224244,-0.3736739375801876,-0.006727194831066919,0.001159864426420168
1659040923.0547333,279,0,0,,0.29144367128917315,0.14792394522746657,0.3846042568866152,0.9274158100272026,-0.37396882501341755,-0.006754924621541694,0.001266589687885967
1659040923.0983584,280,0,0,,0.2912493439857933,0.1505757093571592,0.3846042568866152,0.9274458662280777,-0.37389158353113255,-0.006857599648736995,0.0014907397827169388
1659040923.142431,281,0,0,,0.2911436066499002,0.15324937956391096,0.3846042568866152,0.9277743709245548,-0.37307664399136586,-0.006801789500484892,0.0015066652968831092
1659040923.1863549,282,0,0,,0.2911500654866642,0.1584526075740439,0.3846042568866152,0.9275863950755961,-0.37355049321125156,-0.0064871647111098335,0.001193897995053917
1659040923.230587,283,0,0,,0.2910647931369762,0.16100549923178797,0.3846042568866152,0.9273724010521007,-0.37407719984140736,-0.00666508061280167,0.0015016691505752528
1659040923.2505484,284,0,0,,0.2909663914818533,0.16360028034787838,0.3846042568866152,0.9272871109510304,-0.3742857790696887,-0.006770522798483769,0.0017115708780207994
1659040923.2944462,285,0,0,,0.2908677091105135,0.16625117958968444,0.3846042568866152,0.927527783464258,-0.37368858561651463,-0.00677060716363744,0.0017918607405811205
1659040923.3383918,286,0,0,,0.29085764197401687,0.16883225690321405,0.3846042568866152,0.9279050857776145,-0.3727538485252397,-0.006630496262457818,0.0016603428448591332
1659040923.3823256,287,0,0,,0.2907971022469969,0.1713829091040799,0.3846042568866152,0.9279331900801192,-0.372684619306859,-0.006591400630330701,0.0016500634301358321
1659040923.4266787,288,0,0,,0.2907822093818798,0.1763796582492955,0.3846042568866152,0.9273747062131178,-0.37407394454642773,-0.006489072778655595,0.0016523398170055013
1659040923.470523,289,0,0,,0.29081650406891857,0.17880847152021112,0.3846042568866152,0.9272318611812237,-0.3744276216285545,-0.006483479569844952,0.0017309716904399754
1659040923.4888284,290,0,0,,0.2907637839011313,0.18119464687113937,0.3846042568866152,0.9273722326238255,-0.3740767160503323,-0.006592110455102481,0.00197402109104786
1659040923.5303912,291,0,0,,0.2907699443941751,0.1834250163760406,0.3846042568866152,0.9276971688506527,-0.3732669611268038,-0.006703700069159165,0.0021906695105697663
1659040923.5743933,292,0,0,,0.2907854775266886,0.18552487684671376,0.3846042568866152,0.927732803715911,-0.37317614456201936,-0.006773460536829731,0.0023516521382251788
1659040923.6183455,293,0,0,,0.2908576019836491,0.18742578379928357,0.3846042568866152,0.9273201051062429,-0.37419592677314617,-0.006919683754648857,0.0026361003916000746
1659040923.662355,294,0,0,,0.29081727881294617,0.19078985279182387,0.3846042568866152,0.9267814714654485,-0.37551412751065216,-0.0073310280006302075,0.00339119803923134
1659040923.7063599,295,0,0,,0.2908480074493366,0.1921468242394776,0.3846042568866152,0.9266065579852688,-0.3759415362178493,-0.007432758683044279,0.003605848641233452
1659040923.726398,296,0,0,,0.2909651837962582,0.19315153248622974,0.3846042568866152,0.9264918911153752,-0.37622332748452214,-0.007441281646962095,0.0036620866866066753
1659040923.7702863,297,0,0,,0.2911188771348088,0.19380750044058348,0.3846042568866152,0.9265420706531922,-0.3760949345851643,-0.007569170410457261,0.003885762358104842
1659040923.814376,298,0,0,,0.29126409613858956,0.19410756149481842,0.3846042568866152,0.9266174860076875,-0.3758999829466994,-0.00781502087581858,0.004261794968555741
1659040923.8584132,299,0,0,,0.29134994485424814,0.19414651186630372,0.3846042568866152,0.9266014489750958,-0.37592743884034985,-0.008131650641386299,0.004710811254625115
1659040923.9064884,300,0,0,,0.29137003163625397,0.1941605233614926,0.3846042568866152,0.9265764948955864,-0.37596143211581734,-0.00876938711074641,0.0056655554729040875
1659040923.9503167,301,0,0,,0.2913713789815565,0.19408336352874236,0.3846042568866152,0.9264775427176477,-0.37618913617208194,-0.009124043113276173,0.0061521137511086465
1659040923.9642308,302,0,0,,0.2912847573548403,0.1939147628707119,0.3846042568866152,0.9263323034911496,-0.3765206194165176,-0.009637839733325857,0.006913660881322306
1659040924.0064313,303,0,0,,0.2911151207691187,0.19365190906507979,0.3846042568866152,0.9261113106850982,-0.37702662044820806,-0.010313329239451557,0.007899552791101836
1659040924.0504227,304,0,0,,0.2908577742510061,0.1932135983689155,0.3846042568866152,0.9257996236845926,-0.3777429363430274,-0.011127546177492747,0.009028208314098809
1659040924.0944293,305,0,0,,0.2905878119366933,0.1927295645307965,0.3846042568866152,0.9255918521309678,-0.3782076289894619,-0.011817107414678866,0.009953321806135583
1659040924.138311,306,0,0,,0.2902102004701318,0.19167431823020586,0.3846042568866152,0.9251963093323794,-0.37910854845625463,-0.012778695678754831,0.011189397738954625
1659040924.182351,307,0,0,,0.29023238561634657,0.19112451149728907,0.3846042568866152,0.9249317760493347,-0.37973407769613016,-0.013054896137382114,0.011524303770196281
1659040924.2024326,308,0,0,,0.2904519783422168,0.19043682840241016,0.3846042568866152,0.9245495229409989,-0.38064693366048846,-0.013336747029699043,0.011756815175695006
1659040924.2425961,309,0,0,,0.29078476760476146,0.18964105405218912,0.3846042568866152,0.9240828515410454,-0.38175713713223247,-0.013700043895239765,0.012028322147364294
1659040924.286359,310,0,0,,0.291188563472258,0.1887008059441172,0.3846042568866152,0.923534119768034,-0.3830552879629979,-0.014217004858049475,0.012298486130924914
1659040924.33033,311,0,0,,0.2915939808110044,0.18774443758025774,0.3846042568866152,0.9229875154056382,-0.3843419689839511,-0.014800801376476163,0.012499342450615132
1659040924.37458,312,0,0,,0.2923234185307791,0.18592768671544463,0.3846042568866152,0.9221349208290132,-0.3863351136378338,-0.015889875180366025,0.012644351498360485
1659040924.418558,313,0,0,,0.2926226362966181,0.18508913303707356,0.3846042568866152,0.9217598591635567,-0.3872027093637925,-0.016476047998802822,0.012702902753588062
1659040924.4405715,314,0,0,,0.29281305344792113,0.1842772910392739,0.3846042568866152,0.9214343613803846,-0.38794613212314594,-0.01709605052943185,0.012815665977162695
1659040924.4823003,315,0,0,,0.29295631254867044,0.18357898385429564,0.3846042568866152,0.9212496739655572,-0.3883679932127104,-0.01751473781955229,0.01275045195044162
1659040924.5304482,316,0,0,,0.2929864384028754,0.182932272363332,0.3846042568866152,0.9211565927017966,-0.38856863801097963,-0.017731126055646557,0.013059572925302125
1659040924.5743906,317,0,0,,0.29287211537607605,0.18238129872129116,0.3846042568866152,0.9210051620616853,-0.3888982571923099,-0.018100287744983786,0.013417026221547768
1659040924.6184573,318,0,0,,0.2926142688844211,0.18136203394550832,0.3846042568866152,0.9206893984865266,-0.38960431874062557,-0.018628712377277704,0.013873622764214494
1659040924.6625519,319,0,0,,0.2925315593870981,0.18089649727760354,0.3846042568866152,0.9205528177782463,-0.3899216509032834,-0.018717601414821414,0.013902058643613734
1659040924.6783786,320,0,0,,0.2924438787675579,0.18039942032794076,0.3846042568866152,0.9203833383278122,-0.3903084394182409,-0.01890757939169224,0.014011998032995694
1659040924.7223694,321,0,0,,0.29239383756792436,0.17984873089507644,0.3846042568866152,0.9201529787296436,-0.39084329564765613,-0.019052791083172524,0.014035851748656276
1659040924.7664773,322,0,0,,0.29243931391761235,0.1791614340327643,0.3846042568866152,0.9198490381694958,-0.39155913703180506,-0.019094410834335947,0.013949647333620262
1659040924.810404,323,0,0,,0.29254411558319227,0.17830882765579553,0.3846042568866152,0.9195578486299288,-0.39224191490572824,-0.019122028617940403,0.013928073658767146
1659040924.8543177,324,0,0,,0.2927726151961316,0.17620841120199932,0.3846042568866152,0.9193600299726502,-0.39270919465073556,-0.019104105956211547,0.013844018966469742
1659040924.898431,325,0,0,,0.29291478946378446,0.17491660080491808,0.3846042568866152,0.9192929149791501,-0.39286875749666833,-0.01908519301420491,0.013799683311164124
1659040924.9163225,326,0,0,,0.2930686353047255,0.1735344868434966,0.3846042568866152,0.9194501822735287,-0.39250496268177343,-0.0190998861371933,0.013653239057945438
1659040924.9587872,327,0,0,,0.2932385757669581,0.17201792806419136,0.3846042568866152,0.9194397353950067,-0.39251627981704906,-0.01932792346956054,0.013710376717321426
1659040925.0024495,328,0,0,,0.29338121639030473,0.1704308123683994,0.3846042568866152,0.9193130233291126,-0.392789498236605,-0.019669060895887994,0.01389615976550255
1659040925.046269,329,0,0,,0.2934449940145635,0.16887790891704305,0.3846042568866152,0.9191604993205418,-0.3931149401701196,-0.02009946781982238,0.014164451876877388
1659040925.0903568,330,0,0,,0.29351460654911987,0.16599801638208567,0.3846042568866152,0.9195510747614591,-0.39217278163002883,-0.02054543319049355,0.014290396379055527
1659040925.1344848,331,0,0,,0.29362021728295246,0.1645801495067789,0.3846042568866152,0.9198848975468995,-0.39140647887324354,-0.02045761334712752,0.0139366286268097
1659040925.1548762,332,0,0,,0.2936116248257269,0.16315184556632845,0.3846042568866152,0.919870408461558,-0.39144221848773253,-0.020510325849207218,0.013811146068805558
1659040925.1984763,333,0,0,,0.29357280004340436,0.16175661807693295,0.3846042568866152,0.9197021026645034,-0.39183500630778173,-0.020595732908432716,0.013754489164658403
1659040925.2424984,334,0,0,,0.2935616031564563,0.16057725536834982,0.3846042568866152,0.9196381236120398,-0.39199890615670563,-0.02051276236597932,0.01348353630865718
1659040925.2865717,335,0,0,,0.2934136649791491,0.15955360644063665,0.3846042568866152,0.9198187664343799,-0.39158062156598544,-0.020506061228861693,0.013324983392874464
1659040925.330445,336,0,0,,0.2929868638709666,0.15819665292412508,0.3846042568866152,0.9198915276008806,-0.3914433006784966,-0.020219549498302826,0.012762821786477847
1659040925.374438,337,0,0,,0.29271567507759844,0.15770762485272305,0.3846042568866152,0.9197309519484677,-0.3918393822298662,-0.020033329658411213,0.012471578268580953
1659040925.3927588,338,0,0,,0.292574368978123,0.15740484742786812,0.3846042568866152,0.9196443997135758,-0.3920923674761168,-0.019492042838174944,0.011739408362726701
1659040925.434427,339,0,0,,0.2924806707692664,0.15730542085965193,0.3846042568866152,0.9196747191147995,-0.3920832450220185,-0.018772470062847747,0.010804367699171768
1659040925.4823275,340,0,0,,0.2924168665409582,0.15730677712102098,0.3846042568866152,0.9198224375020474,-0.3918062067562299,-0.017902210440853713,0.009700034892390833
1659040925.526327,341,0,0,,0.29237717241690175,0.1573280775921045,0.3846042568866152,0.9200994488514155,-0.3912245579304375,-0.016972932281841793,0.00850112140180659
1659040925.5703542,342,0,0,,0.2922865160050656,0.15737458941260776,0.3846042568866152,0.9207358015740571,-0.3898414588861673,-0.015192489147284004,0.0061974920365644925
1659040925.6143265,343,0,0,,0.29219297872309663,0.1574992248071939,0.3846042568866152,0.9210133640046523,-0.38922424093803915,-0.01450634548121998,0.005332872616700385
1659040925.6303656,344,0,0,,0.29205633519973184,0.1576884452121872,0.3846042568866152,0.9212245442297015,-0.38874966402892236,-0.014023480994846139,0.004730730084014314
1659040925.6703274,345,0,0,,0.2919833356329736,0.15806659331796066,0.3846042568866152,0.9214682322196529,-0.38819727108372004,-0.013503899663726957,0.004101271180489084
1659040925.7143524,346,0,0,,0.29198292627006706,0.15866892293567197,0.3846042568866152,0.9217933698796639,-0.38745226593465487,-0.012896223722059504,0.0033782059746135375
1659040925.7582796,347,0,0,,0.2919468303385121,0.15950496981230095,0.3846042568866152,0.9222393968556549,-0.38641699457609247,-0.012234246995260632,0.002593143527523078
1659040925.802412,348,0,0,,0.2914584396893617,0.16149235740123113,0.3846042568866152,0.9233853769560983,-0.38369876891023375,-0.011452728494535852,0.0018802540045866896
1659040925.8463852,349,0,0,,0.2910673650740111,0.16264730899971047,0.3846042568866152,0.924062085444465,-0.38207658719811854,-0.011140905066760458,0.0016198731546014156
1659040925.8684247,350,0,0,,0.2906646610807833,0.16389011402962092,0.3846042568866152,0.9247277337849215,-0.38047429226437984,-0.010785554958079088,0.0012661387551914122
1659040925.9148977,351,0,0,,0.290306671762396,0.16517798072077847,0.3846042568866152,0.9252683325641972,-0.3791725028129664,-0.010299540204137717,0.0008032875668709679
1659040925.9583504,352,0,0,,0.2900742174288071,0.16636141748394456,0.3846042568866152,0.9257587569118388,-0.3779887838823627,-0.009753138739841844,0.00028160100420912174
1659040926.0023954,353,0,0,,0.28996288415764465,0.16749131823833216,0.3846042568866152,-0.926193460947751,0.3769372577487575,0.009156518192522788,0.0003668759650979898
1659040926.0463045,354,0,0,,0.2899395720321843,0.1695921885031588,0.3846042568866152,-0.9267400594690972,0.3756050716348756,0.00851544784735789,0.001086032361381971
1659040926.0902975,355,0,0,,0.2899606556084891,0.17087282315048402,0.3846042568866152,-0.9270434771133491,0.37485337430487653,0.008637788499757076,0.0008532151442721
1659040926.110606,356,0,0,,0.2900183177548953,0.17203823115299033,0.3846042568866152,-0.9273647828033891,0.37405600884620543,0.008729674641543839,0.0006743051889576895
1659040926.154311,357,0,0,,0.29010808796910315,0.17334987948209707,0.3846042568866152,-0.9276902038554677,0.373247783236388,0.008754667124815638,0.0005779173537789487
1659040926.1986785,358,0,0,,0.2901905502164444,0.17480253872269327,0.3846042568866152,-0.9278304794593851,0.37289945489320814,0.008736837324436338,0.0005152567985659103
1659040926.2424824,359,0,0,,0.29029628344188,0.17640839770204206,0.3846042568866152,-0.9277582608237286,0.3730832820316444,0.008549803798480426,0.000612469557117407
1659040926.286438,360,0,0,,0.29034363498390026,0.1799653663973423,0.3846042568866152,-0.9278372618676785,0.3728875525019596,0.008535462068645914,0.00018996206293145444
1659040926.3307734,361,0,0,,0.2902210645543724,0.18203698526009698,0.3846042568866152,0.9282170917619321,-0.3719391190552395,-0.008619074636398416,0.0001874590373850732
1659040926.3494194,362,0,0,,0.2902642971833712,0.18403517020424423,0.3846042568866152,0.928426417384813,-0.3714195946186738,-0.00847732057206212,0.00010672803700537884
1659040926.390273,363,0,0,,0.29029536293150526,0.1861765336948967,0.3846042568866152,-0.9282406925495048,0.37189056730450254,0.008160071988895973,0.00019237840287724377
1659040926.4344177,364,0,0,,0.2902777680614965,0.18837998231149594,0.3846042568866152,-0.9278212712782397,0.3729393987272303,0.007991441573796597,0.0001801051809101333
1659040926.4783723,365,0,0,,0.29007820676992435,0.19069149427245294,0.3846042568866152,0.927759965128834,-0.373089890968265,-0.008078817922122469,0.0003365859464230157
1659040926.5227838,366,0,0,,0.2897201976726989,0.1954872474124428,0.3846042568866152,0.9279252538515573,-0.3726818185997609,-0.007873355357000544,0.000997818113151807
1659040926.5663528,367,0,0,,0.2895398987395422,0.19803920214206366,0.3846042568866152,0.9279140446470283,-0.3727082683323171,-0.007974973757389472,0.0006872143379192163
1659040926.5874298,368,0,0,,0.2893209128668388,0.20051412989071304,0.3846042568866152,0.9279964678722837,-0.37250273751086715,-0.007991002880335673,0.0006403470543618454
1659040926.6303947,369,0,0,,0.28907684009948276,0.20292345494105715,0.3846042568866152,0.9279607036249317,-0.372592859347281,-0.007918756238909927,0.0008871348315515281
1659040926.6743846,370,0,0,,0.2888781687801746,0.205223385678477,0.3846042568866152,0.9277197526275051,-0.3731918582990085,-0.007911195415409186,0.0011447403189513556
1659040926.718327,371,0,0,,0.28878824936909564,0.20747332668434088,0.3846042568866152,0.9275806558944292,-0.3735383030665354,-0.007863536928837431,0.001194873141622418
1659040926.7625222,372,0,0,,0.28864611941376883,0.2119006947959636,0.3846042568866152,0.9275330192645916,-0.37366091803125817,-0.007648956495340514,0.0012288063131387793
1659040926.8064275,373,0,0,,0.288616385521776,0.21401240679030953,0.3846042568866152,0.9278180732101706,-0.3729533504535686,-0.007601922187815969,0.0012775649746289233
1659040926.825428,374,0,0,,0.2886720698959272,0.2159942236747685,0.3846042568866152,0.9281655085018441,-0.3720851295281051,-0.007689997738034442,0.0015195891787386478
1659040926.8663936,375,0,0,,0.28873686774994783,0.21779849908580412,0.3846042568866152,0.9281096755306659,-0.372219393598474,-0.007852211103498975,0.001869757235190235
1659040926.9103734,376,0,0,,0.28881935148547666,0.21956220990622527,0.3846042568866152,0.9275387796145259,-0.37363565582508385,-0.007963631964974674,0.0021885114511010517
1659040926.9544568,377,0,0,,0.2889057205126744,0.22138184953206486,0.3846042568866152,0.9270243684110127,-0.374910625303765,-0.00792255406291331,0.0022531222577671386
1659040926.9983509,378,0,0,,0.28910710957897007,0.22500112773330688,0.3846042568866152,0.9273091933229796,-0.3742101549331405,-0.0077359517854810435,0.0021389190075114003
1659040927.0424283,379,0,0,,0.2892321802988796,0.22675142687490252,0.3846042568866152,0.9274967914891951,-0.3737465196695798,-0.007663128184444234,0.002125385150341037
1659040927.0631177,380,0,0,,0.28948751051048655,0.2283876167990498,0.3846042568866152,0.927478203717991,-0.3737965905404152,-0.007513926352855114,0.001957407197417729
1659040927.1063175,381,0,0,,0.2898052252866479,0.22996051845989926,0.3846042568866152,0.9273124216568216,-0.3742102154772611,-0.007408325701635837,0.0018718967773524173
1659040927.1503556,382,0,0,,0.29007833635888713,0.23145681797996043,0.3846042568866152,0.9272805665834246,-0.37428820366355436,-0.00742191508233654,0.002001653308767348
1659040927.1947353,383,0,0,,0.2902656387971936,0.23290223110122388,0.3846042568866152,0.9274367070532442,-0.37389834625603563,-0.007497656095040724,0.002228503056839309
1659040927.2386339,384,0,0,,0.29074186551630465,0.23532456203228644,0.3846042568866152,0.9274505056253057,-0.37385414812583406,-0.0077637875917780045,0.002891217940332222
1659040927.28236,385,0,0,,0.2910095260847546,0.23616647628205492,0.3846042568866152,0.9270689288048145,-0.3747902599986691,-0.00799715305819362,0.003392314301881781
1659040927.3013904,386,0,0,,0.29123213854129065,0.2367035189025387,0.3846042568866152,0.9265858000766546,-0.375970932670861,-0.008287254499300468,0.003991778020009032
